[
    {
        "name": "Fisherhaven Public Slipway (missing to be replaced)",
        "lat": "-34.3554749",
        "lng": "19.124283",
        "alt": "1.528156445928051",
        "id": "FISH-0001",
        "old_id": null,
        "status": "MISSING",
        "formatted_address": "29 Riverside Rylaan, Fisherhaven, Hermanus, 7200, South Africa",
        "town": "Fisherhaven",
        "town_code": "FISH"
    },
    {
        "name": "2880 Youldon (Drikus) To reposition",
        "lat": "-34.3586755",
        "lng": "18.9433987",
        "alt": "7.627864957698431",
        "id": "FISH-1718",
        "old_id": "17-18",
        "status": "MAINTENANCE",
        "formatted_address": "5138 Youldon Rd, Betty's Bay, 7141, South Africa",
        "town": "Fisherhaven",
        "town_code": "FISH"
    },
    {
        "name": "Dawidskraal",
        "lat": "-34.35709115850189",
        "lng": "18.92088833085133",
        "alt": "5.867505434406555",
        "id": "BETT-4246",
        "old_id": "42-46",
        "status": "OK",
        "formatted_address": "5159 Otter Close, Betty's Bay, Bettysbaai, 7141, South Africa",
        "town": "Betty's Bay",
        "town_code": "BETT"
    },
    {
        "name": "Malkopvlei East",
        "lat": "-34.3556023",
        "lng": "18.9096339",
        "alt": "7.627864957698431",
        "id": "BETT-4222",
        "old_id": "42-22",
        "status": "OK",
        "formatted_address": "2461 Reed Rd, Betty's Bay, 7141, South Africa",
        "town": "Betty's Bay",
        "town_code": "BETT"
    },
    {
        "name": "Malkopvlei West",
        "lat": "-34.3562066",
        "lng": "18.9058109",
        "alt": "12.44860205521128",
        "id": "BETT-4221",
        "old_id": "42-21",
        "status": "OK",
        "formatted_address": "2690 Anglers Rd, Betty's Bay, 7141, South Africa",
        "town": "Betty's Bay",
        "town_code": "BETT"
    },
    {
        "name": "Main Beach Entrance",
        "lat": "-34.3591389",
        "lng": "18.9057883",
        "alt": "2.517397597841093",
        "id": "BETT-4240",
        "old_id": "42-40",
        "status": "OK",
        "formatted_address": "5114 Access Rd, Betty's Bay, 7141, South Africa",
        "town": "Betty's Bay",
        "town_code": "BETT"
    },
    {
        "name": "Main Beach @ Life Saver's Hut",
        "lat": "-34.3603481",
        "lng": "18.9046939",
        "alt": "2.4606555031114",
        "id": "BETT-4235",
        "old_id": "42-35",
        "status": "OK",
        "formatted_address": "3767 Morea Rd, Betty's Bay, 7141, South Africa",
        "town": "Betty's Bay",
        "town_code": "BETT"
    },
    {
        "name": "Mocha Bay",
        "lat": "-34.372099",
        "lng": "18.8842054",
        "alt": "3.898389302599874",
        "id": "BETT-4211",
        "old_id": "42-11",
        "status": "OK",
        "formatted_address": "4394 Amarylis Cres, Betty's Bay, 7141, South Africa",
        "town": "Betty's Bay",
        "town_code": "BETT"
    },
    {
        "name": "Silver Dunes",
        "lat": "-34.3699412",
        "lng": "18.877861",
        "alt": "4.617114676674388",
        "id": "BETT-4224",
        "old_id": "42-24",
        "status": "OK",
        "formatted_address": "5148 Easy Rd, Betty's Bay, 7141, South Africa",
        "town": "Betty's Bay",
        "town_code": "BETT"
    },
    {
        "name": "Silver Sands",
        "lat": "-34.3689837",
        "lng": "18.8761117",
        "alt": "3.765279673274784",
        "id": "BETT-4205",
        "old_id": "42-05",
        "status": "OK",
        "formatted_address": "2080 Lovers Walk, Betty's Bay, 7141, South Africa",
        "town": "Betty's Bay",
        "town_code": "BETT"
    },
    {
        "name": "Pringle Bay Main Beach",
        "lat": "-34.3414819",
        "lng": "18.8305487",
        "alt": "6.33227922654534",
        "id": "BETT-4223",
        "old_id": "42-23",
        "status": "OK",
        "formatted_address": "642 Anne Rd, Pringle Bay, 7196, South Africa",
        "town": "Betty's Bay",
        "town_code": "BETT"
    },
    {
        "name": "Pringle Bay Lagoon",
        "lat": "-34.33974373268021",
        "lng": "18.83088357981857",
        "alt": "5.734448752541721",
        "id": "BETT-4201",
        "old_id": "42-??",
        "status": "OK",
        "formatted_address": "573 Anne Rd, Pringle Bay, 7196, South Africa",
        "town": "Betty's Bay",
        "town_code": "BETT"
    },
    {
        "name": "Pringle Bay Boat Launch",
        "lat": "-34.3466182",
        "lng": "18.8261496",
        "alt": "5.605629541026438",
        "id": "BETT-4202",
        "old_id": "42-??",
        "status": "OK",
        "formatted_address": "Pringle Bay boat launch, 255 Beach Rd, Pringle Bay, 7196, South Africa",
        "town": "Betty's Bay",
        "town_code": "BETT"
    },
    {
        "name": "Bell Road North",
        "lat": "-34.3484473",
        "lng": "18.8174566",
        "alt": "7.969736336370605",
        "id": "BETT-4241",
        "old_id": "42-41",
        "status": "OK",
        "formatted_address": "94 Bell Rd, Pringle Bay, 7196, South Africa",
        "town": "Betty's Bay",
        "town_code": "BETT"
    },
    {
        "name": "Hangklip Road Parking Area",
        "lat": "-34.3479867",
        "lng": "18.8200814",
        "alt": "5.144106997106242",
        "id": "BETT-4244",
        "old_id": "42-44",
        "status": "OK",
        "formatted_address": "241 Hangklip Rd, Pringle Bay, 7196, South Africa",
        "town": "Betty's Bay",
        "town_code": "BETT"
    },
    {
        "name": "Rooi Els River Mouth",
        "lat": "-34.2994987341667",
        "lng": "18.82028567852609",
        "alt": "7.133037734147814",
        "id": "BETT-0923",
        "old_id": "09-23",
        "status": "OK",
        "formatted_address": "55 Lovers Walk, Rooi-Els, 7196, South Africa",
        "town": "Betty's Bay",
        "town_code": "BETT"
    },
    {
        "name": "Rooi Els Slipway",
        "lat": "-34.2990745",
        "lng": "18.8175772",
        "alt": "5.709323081897287",
        "id": "BETT-0916",
        "old_id": "09-16",
        "status": "OK",
        "formatted_address": "339 Hotel Cres, Rooi-Els, 7196, South Africa",
        "town": "Betty's Bay",
        "town_code": "BETT"
    },
    {
        "name": "Rooi Els Rocky Beach",
        "lat": "-34.30225",
        "lng": "18.8133975",
        "alt": "7.373661199124553",
        "id": "BETT-0919",
        "old_id": "09-19",
        "status": "OK",
        "formatted_address": "136 Rocklands Rd, Rooi-Els, 7196, South Africa",
        "town": "Betty's Bay",
        "town_code": "BETT"
    },
    {
        "name": "Rooi Els Otter Pools",
        "lat": "-34.3053586",
        "lng": "18.8155099",
        "alt": "4.529062301919337",
        "id": "ROOI-0915",
        "old_id": "09-15",
        "status": "OK",
        "formatted_address": "343 Kannemeyer St, Rooi-Els, 7196, South Africa",
        "town": "Rooi-Els",
        "town_code": "ROOI"
    },
    {
        "name": "Rooi Els Rocklands Road",
        "lat": "-34.30759489337905",
        "lng": "18.81546152458687",
        "alt": "6.833431153522424",
        "id": "ROOI-0917",
        "old_id": "09-17",
        "status": "OK",
        "formatted_address": "252 Crucenta Cir, Rooi-Els, 7196, South Africa",
        "town": "Rooi-Els",
        "town_code": "ROOI"
    },
    {
        "name": "Jocks Bay",
        "lat": "-34.3558951",
        "lng": "18.9325237",
        "alt": "9.487626265793965",
        "id": "ROOI-4230",
        "old_id": "42-30",
        "status": "OK",
        "formatted_address": "2777 Four Streams Rd, Betty's Bay, 7141, South Africa",
        "town": "Rooi-Els",
        "town_code": "ROOI"
    },
    {
        "name": "PROPOSED NEW BUOY",
        "lat": "-34.35726823498547",
        "lng": "18.93268521970053",
        "alt": "4.49948882409811",
        "id": "ROOI-0001",
        "old_id": null,
        "status": "PROPOSED",
        "formatted_address": "Shelly Beach, 3459 Marine Dr, Betty's Bay, 7141, South Africa",
        "town": "Rooi-Els",
        "town_code": "ROOI"
    },
    {
        "name": "PROPOSED NEW BUOY",
        "lat": "-34.35784120566115",
        "lng": "18.90883427333199",
        "alt": "4.240172722633675",
        "id": "ROOI-0002",
        "old_id": null,
        "status": "PROPOSED",
        "formatted_address": "5157 Anglers Rd, Betty's Bay, 7141, South Africa",
        "town": "Rooi-Els",
        "town_code": "ROOI"
    },
    {
        "name": "BUOY MISSING",
        "lat": "-34.34363680449847",
        "lng": "18.82932265635846",
        "alt": "0.6270617786860848",
        "id": "ROOI-4201",
        "old_id": "42-01",
        "status": "MISSING",
        "formatted_address": "670 Vivian Rd, Pringle Bay, 7196, South Africa",
        "town": "Rooi-Els",
        "town_code": "ROOI"
    },
    {
        "name": "MISSING BUOY",
        "lat": "-34.34317488404171",
        "lng": "18.82952340007727",
        "alt": "0.1015483944263706",
        "id": "ROOI-1727",
        "old_id": "17-27",
        "status": "MISSING",
        "formatted_address": "659 Barbara Rd, Pringle Bay, 7196, South Africa",
        "town": "Rooi-Els",
        "town_code": "ROOI"
    },
    {
        "name": "Kleinmond Lagoon Bridge",
        "lat": "-34.3408457",
        "lng": "19.0373592",
        "alt": "2.475511850588721",
        "id": "KLEI-4227",
        "old_id": "42-27",
        "status": "OK",
        "formatted_address": "25 Strand St, Kleinmond, 7195, South Africa",
        "town": "Kleinmond",
        "town_code": "KLEI"
    },
    {
        "name": "Kleinmond Main Beach",
        "lat": "-34.3412517",
        "lng": "19.0376486",
        "alt": "2.64047061366061",
        "id": "KLEI-4225",
        "old_id": "42-25",
        "status": "OK",
        "formatted_address": "4 Strand St, Kleinmond, 7195, South Africa",
        "town": "Kleinmond",
        "town_code": "KLEI"
    },
    {
        "name": "Preekboom",
        "lat": "-34.3412722",
        "lng": "19.0364928",
        "alt": "3.499037500149846",
        "id": "KLEI-4204",
        "old_id": "42-04",
        "status": "OK",
        "formatted_address": "17 Strand St, Kleinmond, 7195, South Africa",
        "town": "Kleinmond",
        "town_code": "KLEI"
    },
    {
        "name": "Main Beach Lifesavers Station",
        "lat": "-34.3423213",
        "lng": "19.0368042",
        "alt": "5.219353180941011",
        "id": "KLEI-4203",
        "old_id": "42-03",
        "status": "OK",
        "formatted_address": "4 Strand St, Kleinmond, 7195, South Africa",
        "town": "Kleinmond",
        "town_code": "KLEI"
    },
    {
        "name": "Lagoon Mouth Parking",
        "lat": "-34.3428559",
        "lng": "19.0369674",
        "alt": "2.790638562842236",
        "id": "KLEI-4248",
        "old_id": "42-48",
        "status": "OK",
        "formatted_address": "5 Strand St, Kleinmond, 7195, South Africa",
        "town": "Kleinmond",
        "town_code": "KLEI"
    },
    {
        "name": "Drievis Tidal Pool",
        "lat": "-34.34436225921026",
        "lng": "19.03400451756602",
        "alt": "6.73481943004421",
        "id": "KLEI-4206",
        "old_id": "42-06",
        "status": "OK",
        "formatted_address": "20 Beach Rd, Kleinmond, 7195, South Africa",
        "town": "Kleinmond",
        "town_code": "KLEI"
    },
    {
        "name": "Parking Area (Near Malherbe Stoel)",
        "lat": "-34.3444143",
        "lng": "19.0317733",
        "alt": "8.738156686080021",
        "id": "KLEI-1723",
        "old_id": "17-23",
        "status": "OK",
        "formatted_address": "38 Beach Rd, Kleinmond, 7195, South Africa",
        "town": "Kleinmond",
        "town_code": "KLEI"
    },
    {
        "name": "Beach Road btw 6th & 7th Street 42-8",
        "lat": "-34.34450360742333",
        "lng": "19.02611299824928",
        "alt": "11.23715000816309",
        "id": "KLEI-0001",
        "old_id": null,
        "status": "OK",
        "formatted_address": "88 Beach Rd, Kleinmond, 7195, South Africa",
        "town": "Kleinmond",
        "town_code": "KLEI"
    },
    {
        "name": "Kleinmond Slipway",
        "lat": "-34.3458132",
        "lng": "19.0135786",
        "alt": "8.649604395800694",
        "id": "KLEI-4238",
        "old_id": "42-38",
        "status": "OK",
        "formatted_address": "18 Harbour Rd, Kleinmond, 7195, South Africa",
        "town": "Kleinmond",
        "town_code": "KLEI"
    },
    {
        "name": "Gustav Adolf Shipwreck Graves",
        "lat": "-34.3437285",
        "lng": "19.0014012",
        "alt": "5.862983457044355",
        "id": "KLEI-4202",
        "old_id": "42-??",
        "status": "OK",
        "formatted_address": "1 Harbour Rd, Kleinmond, 7195, South Africa",
        "town": "Kleinmond",
        "town_code": "KLEI"
    },
    {
        "name": "Palmiet Day Camp",
        "lat": "-34.3409659",
        "lng": "18.9948902",
        "alt": "6.867013916247117",
        "id": "KLEI-4203",
        "old_id": "42-??",
        "status": "OK",
        "formatted_address": "1 Harbour Rd, Kleinmond, 7195, South Africa",
        "town": "Kleinmond",
        "town_code": "KLEI"
    },
    {
        "name": "Island Palmiet Lagoon",
        "lat": "-34.34238989622347",
        "lng": "18.99522482527925",
        "alt": "4.453066485995705",
        "id": "KLEI-4226",
        "old_id": "42-26",
        "status": "OK",
        "formatted_address": "1 Harbour Rd, Kleinmond, 7195, South Africa",
        "town": "Kleinmond",
        "town_code": "KLEI"
    },
    {
        "name": "Old Boat Club Slipway Picnic Spot",
        "lat": "-34.3381631",
        "lng": "18.9915057",
        "alt": "3.369620769444037",
        "id": "KLEI-4239",
        "old_id": "42-39",
        "status": "OK",
        "formatted_address": "MX6R+PJ Kleinmond, South Africa",
        "town": "Kleinmond",
        "town_code": "KLEI"
    },
    {
        "name": "Palmiet Bridge 42-",
        "lat": "-34.3304418457239",
        "lng": "18.99095898126704",
        "alt": "12.85052778637322",
        "id": "KLEI-0004",
        "old_id": null,
        "status": "OK",
        "formatted_address": "Palmietrivier,, Kleinmond, 7195, South Africa",
        "town": "Kleinmond",
        "town_code": "KLEI"
    },
    {
        "name": "PROPOSED NEW BUOY",
        "lat": "-34.34087826510088",
        "lng": "19.04057179815418",
        "alt": "4.394642726083436",
        "id": "KLEI-0005",
        "old_id": null,
        "status": "PROPOSED",
        "formatted_address": "M25R+J6 Kleinmond, South Africa",
        "town": "Kleinmond",
        "town_code": "KLEI"
    },
    {
        "name": "PROPOSED NEW BUOY",
        "lat": "-34.36094195524722",
        "lng": "18.96624861741974",
        "alt": "6.533113104370704",
        "id": "KLEI-0006",
        "old_id": null,
        "status": "PROPOSED",
        "formatted_address": "3453 De Wets Cres, Betty's Bay, 7141, South Africa",
        "town": "Kleinmond",
        "town_code": "KLEI"
    },
    {
        "name": "PROPOSED NEW BUOY",
        "lat": "-34.33028456511161",
        "lng": "18.99053735579896",
        "alt": "10.62615459334128",
        "id": "KLEI-0007",
        "old_id": null,
        "status": "PROPOSED",
        "formatted_address": "Palmietrivier,, Kleinmond, 7195, South Africa",
        "town": "Kleinmond",
        "town_code": "KLEI"
    },
    {
        "name": "MISSING",
        "lat": "-34.373333",
        "lng": "18.891111",
        "alt": "5.951384517401398",
        "id": "KLEI-1725",
        "old_id": "17-25",
        "status": "MISSING",
        "formatted_address": "2410 Rocky Ridge, Betty's Bay, 7141, South Africa",
        "town": "Kleinmond",
        "town_code": "KLEI"
    }
]